[
  {
    "id": "cristo-redentor",
    "region": "sudeste",
    "name": "Cristo Redentor",
    "city": "Rio de Janeiro - RJ",
    "imageUrl": "https://grupocataratas.com/wp-content/uploads/2020/08/Paineiras_Drone_C-008-scaled.jpg",
    "lat": -22.951916,
    "lng": -43.210487,
    "description": "Uma das 7 maravilhas do mundo moderno.",
    "category": "monumento",
    "openingHours": "Diariamente 08:00–19:00",
    "priceRange": "pago",
    "website": "https://cristoredentoroficial.com.br"
  },
  {
    "id": "ibirapuera",
    "region": "sudeste",
    "name": "Parque Ibirapuera",
    "city": "São Paulo - SP",
    "imageUrl": "https://www.refugiosnointerior.com.br/sistema/_lib/file/img/lugar/2158/parque_ibirapuera_em_sao_paulo.jpg",
    "lat": -23.587416,
    "lng": -46.657634,
    "description": "Parque urbano com museus e áreas verdes (foto: Monumento às Bandeiras, ícone do entorno).",
    "category": "parque",
    "openingHours": "Diariamente 05:00–00:00",
    "priceRange": "grátis",
    "website": "https://www.prefeitura.sp.gov.br/cidade/secretarias/meio_ambiente/parques/regionais/sul/ibirapuera/"
  },
  {
    "id": "pelourinho",
    "region": "nordeste",
    "name": "Pelourinho",
    "city": "Salvador - BA",
    "imageUrl": "https://upload.wikimedia.org/wikipedia/commons/9/9e/Largo_do_Pelourinho_Salvador_2019-9754_%28cropped%29.jpg",
    "lat": -12.971111,
    "lng": -38.510833,
    "description": "Centro histórico com casarões coloniais e igrejas barrocas.",
    "category": "centro-histórico",
    "openingHours": "Comércio em horário comercial",
    "priceRange": "grátis",
    "website": "https://www.salvadordabahia.com"
  },
  {
    "id": "cataratas",
    "region": "sul",
    "name": "Cataratas do Iguaçu",
    "city": "Foz do Iguaçu - PR",
    "imageUrl": "https://emalgumlugardomundo.com.br/wp-content/webp-express/webp-images/doc-root/wp-content/uploads/2021/12/cataratas-do-iguacu-8.jpg.webp",
    "lat": -25.695278,
    "lng": -54.436667,
    "description": "Conjunto de quedas d’água no Parque Nacional do Iguaçu.",
    "category": "natureza",
    "openingHours": "Diariamente 09:00–17:00",
    "priceRange": "pago",
    "website": "https://www.cataratasdoiguacu.com.br"
  },
  {
    "id": "pao-de-acucar",
    "region": "sudeste",
    "name": "Pão de Açúcar",
    "city": "Rio de Janeiro - RJ",
    "imageUrl": "https://riodejaneiro.tur.br/wp-content/uploads/2024/08/pao-de-acucar-joao-ricardo-januzzi-1024x683.jpg",
    "lat": -22.9486,
    "lng": -43.1566,
    "description": "Teleférico clássico e vista da Baía de Guanabara.",
    "category": "mirante",
    "openingHours": "Diariamente 08:00–21:00",
    "priceRange": "pago",
    "website": "https://www.bondinho.com.br"
  },
  {
    "id": "jardim-botanico-curitiba",
    "region": "sul",
    "name": "Jardim Botânico",
    "city": "Curitiba - PR",
    "imageUrl": "https://upload.wikimedia.org/wikipedia/commons/0/01/Estufa_do_Jardim_Bot%C3%A2nico_Curitiba.JPG",
    "lat": -25.4429,
    "lng": -49.2422,
    "description": "Estufa de vidro e jardins geométricos.",
    "category": "jardim",
    "openingHours": "Diariamente 06:00–19:30",
    "priceRange": "grátis",
    "website": "https://www.curitiba.pr.gov.br"
  },
  {
    "id": "lago-negro-gramado",
    "region": "sul",
    "name": "Lago Negro",
    "city": "Gramado - RS",
    "imageUrl": "https://upload.wikimedia.org/wikipedia/commons/3/32/Gramado_-_Lago_Negro.JPG",
    "lat": -29.3912,
    "lng": -50.8737,
    "description": "Cartão-postal com hortênsias e pedalinhos.",
    "category": "parque",
    "openingHours": "Diariamente 06:00–20:00",
    "priceRange": "grátis"
  },
  {
    "id": "caracol-canela",
    "region": "sul",
    "name": "Cascata do Caracol",
    "city": "Canela - RS",
    "imageUrl": "https://upload.wikimedia.org/wikipedia/commons/6/6c/Cascata_caracol.jpg",
    "lat": -29.3358,
    "lng": -50.8553,
    "description": "Queda d’água de ~131m cercada por araucárias.",
    "category": "cachoeira",
    "openingHours": "Diariamente 09:00–17:30",
    "priceRange": "pago"
  },
  {
    "id": "ouro-preto-centro",
    "region": "sudeste",
    "name": "Centro Histórico de Ouro Preto",
    "city": "Ouro Preto - MG",
    "imageUrl": "https://upload.wikimedia.org/wikipedia/commons/6/60/Centro_Hist%C3%B3rico_de_Ouro_Preto%2C_MG_-_IMG20231106181724.jpg",
    "lat": -20.3856,
    "lng": -43.5036,
    "description": "Patrimônio da humanidade com arquitetura barroca.",
    "category": "centro-histórico",
    "openingHours": "Comércio em horário comercial",
    "priceRange": "misto",
    "website": "https://www.ouropreto.mg.gov.br"
  },
  {
    "id": "teatro-amazonas",
    "region": "norte",
    "name": "Teatro Amazonas",
    "city": "Manaus - AM",
    "imageUrl": "https://upload.wikimedia.org/wikipedia/commons/0/04/01_-_teatro_Amazonas.jpg",
    "lat": -3.1303,
    "lng": -60.0233,
    "description": "Ícone do ciclo da borracha com cúpula policromada.",
    "category": "teatro",
    "openingHours": "Consultar agenda",
    "priceRange": "pago",
    "website": "https://teatroamazonas.com.br/"
  },
  {
    "id": "veu-de-noiva-chapada-guimaraes",
    "region": "centro-oeste",
    "name": "Cachoeira Véu de Noiva",
    "city": "Chapada dos Guimarães - MT",
    "imageUrl": "https://images.weserv.nl/?url=commons.wikimedia.org/wiki/Special:FilePath/Cachoeira%20Veu%20de%20Noiva.jpg&w=1200&output=jpg",
    "lat": -15.414,
    "lng": -55.830,
    "description": "Queda d’água de ~86 m no Parque Nacional da Chapada dos Guimarães, mirante com vista para o paredão.",
    "category": "cachoeira",
    "openingHours": "Diariamente 09:00–17:00",
    "priceRange": "pago"
  }
]